node_id,name,lat,lon,is_uplink
!e3998527,Hess Tank,30.386,-103.163,1
!833c2233,Tin Shack Tank,30.398,-103.17,0
!59f665cf,Trouble Tank,30.378,-103.173,0
!ddf369cc,Miguel Spring,30.379,-103.156,0
!fe8ce61f,Taylor Tank,30.366,-103.198,0
!c5ceab9b,China Tank,30.392,-103.187,0